Stop_Name,Stop_ID,latitude,longitude
CEVIZLI MAHALLESI (SANAL DURAK),4013,37.1939395,31.7670842
KEMER LIMAN,5319,36.6005549,30.572761
AKDENIZ  BLV.-1,10001,36.83751,30.596043
AKDENIZ  BLV.-3,10003,36.842813,30.5985924
AKDENIZ BLV.-4,10004,36.8464574,30.605248
AKDENIZ BLV.-5,10005,36.8466383,30.6074822
ATATURK BLV-1,10006,36.8484143,30.6131652
ATATURK BLV-2,10008,36.8507981,30.6157256
ATATURK BLV-3,10009,36.852404,30.61749
ATATURK BLV-4,10010,36.8538271,30.6190055
ATATURK BUL-5,10011,36.8580417,30.6235708
ATATURK BLV-6,10012,36.8593284,30.6252975
ATATURK BLV-7,10013,36.8618354,30.629013
ATATURK BLV-8,10014,36.8641049,30.6324882
ISKUR KAVSAGI,10015,36.8655388,30.6346345
KONYAALTI BELEDIYESI,10016,36.8677786,30.638278
ATATURK BLV-11,10017,36.8732096,30.6422595
ATATURK BLV-12,10018,36.876039,30.6444396
ATATURK BLV-13,10020,36.8782829,30.6478874
ATATURK BLV-14,10021,36.8804051,30.6531121
LUNAPARK ,10023,36.8836076,30.6585384
ATATURK KULTUR MERKEZI,10024,36.8860915,30.6693218
SAKIP SABANCI BLV-2,10025,36.8868236,30.6729882
100.YIL BLV-4,10026,36.888378,30.6816019
GAZI LISESI ,10027,36.8888325,30.6841769
100.YIL BLV-5,10028,36.8896045,30.6883531
100.YIL BLV-6,10029,36.8900264,30.6904953
KOVANLIK MH-7,10030,37.1233123,30.5816632
ANAFARTALAR CD-1,10031,36.889688,30.6954115
KOVANLIK MH-1,10032,37.124095,30.5821313
GULLUK ,10033,36.8875479,30.6966887
ANTALYA BURDUR KARAYOLU,10034,37.1197621,30.5817813
CUMHURIYET MEYDANI,10035,36.8867325,30.7024022
ANTALYA BURDUR KARAYOLU,10036,37.1187586,30.5878593
UC KAPILAR,10037,36.8861759,30.7081808
VEYSEL KARANI CD-1,10038,37.0253116,30.6346838
ATATURK CD-2,10039,36.883709,30.7090899
ISIKLAR CD-1,10041,36.8798145,30.7088594
ORHAN GAZI CD-1,10042,36.9625392,30.6041898
ISIKLAR CD-3,10043,36.8752713,30.7122345
ORHAN GAZI CD-2,10044,36.9622342,30.6038357
METIN KASAPOGLU CD-1,10045,36.872668,30.7185546
ORHAN GAZI CD-3,10046,36.9664368,30.605323
METIN KASAPOGLU CD-2,10047,36.8707682,30.7194018
ORHAN GAZI CD-4 ,10048,36.9660854,30.6050481
METIN KASAPOGLU CD-3,10049,36.8683304,30.7220153
AT ALANI CD-1,10050,36.9696674,30.6073038
METIN KASAPOGLU CD-4,10051,36.8664207,30.7259103
AT ALANI CD-2,10052,36.969916,30.6076244
ISMET GOKSEN CD-1,10053,36.8641334,30.7283128
ISMET GOKSEN CD-2,10054,36.8618269,30.7302288
ISMET GOKSEN CD-3,10055,36.8603117,30.7316536
ISMET GOKSEN CD-4,10056,36.8590451,30.7338338
1107 SK,10057,36.9008537,30.7313493
ISMET GOKSEN CD-5,10058,36.8586688,30.7383589
ISMET GOKSEN CD-6,10059,36.8584821,30.7407327
ISMET GOKSEN CD-7,10060,36.8582418,30.7439652
IBNI SINA CD,10061,36.9016752,30.7287985
TEKELIOGLU CD-1,10062,36.8563244,30.7465008
TEKELIOGLU CD-2,10063,36.8542821,30.7486426
TEKELIOGLU CD-3,10064,36.8530388,30.7509817
TEKELIOGLU CD-4,10065,36.8521439,30.7548858
TEKELIOGLU CD-5,10066,36.8515809,30.758381
TICARET BORSASI SEMT POLIKLINIGI,10067,36.8532124,30.7569836
BARINAKLAR BLV-1,10068,36.8515386,30.7641298
BARINAKLAR BLV-2,10069,36.8514701,30.7659842
BARINAKLAR BLV-3,10070,36.8515236,30.76893
BARINAKLAR BLV-4,10071,36.8522165,30.7715483
BARINAKLAR BLV-5,10072,36.8532802,30.7738952
BARINAKLAR BLV-6,10073,36.8540657,30.7769775
BARINAKLAR BLV-7,10074,36.854968,30.7796004
BARINAKLAR BLV-8,10075,36.8559579,30.781823
BARINAKLAR BLV-9,10077,36.856918,30.7861147
BARINAKLAR BLV-10 ,10078,36.8577514,30.7893732
GUZELOBA MH,10079,36.8578895,30.7932009
HAVAALANI CD,10080,36.8563375,30.7951754
BAYINDIRLIK CD-2,10082,36.8532062,30.7987278
MENEKSE CD-3,10083,36.851715,30.800784
MENEKSE CD-4,10084,36.850365,30.803279
LARA CD-4,10086,36.850417,30.805892
LARA CD-5,10088,36.8487956,30.8084844
LARA CD-6,10090,36.8501751,30.8061876
MENEKSE CD-1,10092,36.8504755,30.8033725
BAYINDIRLIK CD-1,10094,36.8534301,30.7988741
PTT CD-1,10095,36.854669,30.799281
HAVAALANI CD,10097,36.8566264,30.7952311
HAVAALANI CD,10099,36.8582797,30.7930857
BARINAKLAR BLV-11,10101,36.8580223,30.7895186
BARINAKLAR BLV-12,10103,36.8571891,30.7863327
BARINAKLAR BLV-13,10105,36.8561613,30.7816894
BARINAKLAR BLV-14,10107,36.8551704,30.7794029
BARINAKLAR BLV-15,10109,36.8541713,30.7764995
BARINAKLAR BLV-16,10110,36.8536014,30.7742835
BARINAKLAR BLV-17,10112,36.8523559,30.7713231
BARINAKLAR BLV-18,10113,36.8517355,30.7687455
BARINAKLAR BLV-19,10114,36.8516775,30.7659426
MURATPASA BELEDIYESI,10116,36.8517762,30.7588556
TEKELIOGLU CD-7,10118,36.8523407,30.7550588
TEKELIOGLU CD-8,10119,36.8531717,30.7512751
TEKELIOGLU CD-9,10120,36.8541107,30.7491721
TEKELIOGLU CD-10,10121,36.856091,30.747119
ISMET GOKSEN CD-8,10123,36.8584679,30.7442005
ISMET GOKSEN CD-9,10124,36.8586602,30.7411765
ISMET GOKSEN CD-10 ,10125,36.8588669,30.7385964
ISMET GOKSEN CD-11,10127,36.85913,30.7343542
ISMET GOKSEN CD-12,10128,36.8604294,30.7319235
ISMET GOKSEN CD-13,10129,36.8624598,30.7303018
METIN KASAPOGLU CD-5,10131,36.8655094,30.7271831
METIN KASAPOGLU CD-7,10134,36.869278,30.7209483
METIN KASAPOGLU CD-8,10135,36.8712465,30.7194135
TEVFIK ISIK CD-2,10136,36.873783,30.717185
19 MAYIS CD-1,10137,36.8754665,30.7144248
19 MAYIS CD-2,10138,36.8771504,30.7136479
19 MAYIS CD-3,10140,36.8789552,30.7119418
ARIK CD-1,10142,36.8812877,30.7104041
ARIK CD-2,10144,36.8841886,30.7111585
HUSNU KARAKAS CD,10146,36.8867891,30.7104045
1264.SK,10147,36.887831,30.709893
FAHRETTIN ALTAY CD-1,10148,36.8922047,30.7086505
ANDIZLI MEZARLIGI,10149,36.8931172,30.7059467
YENER ULUSOY BLV,10151,36.8921861,30.6987814
100.YIL BLV-1,10153,36.8904849,30.6911673
100.YIL BLV-2,10154,36.8898121,30.6876101
GAZI LISESI ,10155,36.8893877,30.6852485
100.YIL BLV-3,10156,36.8886831,30.6813288
ATATURK KULTUR MERKEZI,10158,36.8863912,30.6690507
LUNAPARK ,10160,36.8837094,30.6579385
ATATURK BLV-19,10161,36.8821631,30.6556175
ATATURK BLV-20,10162,36.8804446,30.6520219
IL SAGLIK MUDURLUGU,10163,36.878764,30.648139
ATATURK BLV-22,10164,36.8774958,30.6461
ATATURK BLV-23,10165,36.87546,30.643262
ATATURK BLV-24,10166,36.872523,30.641539
KONYAALTI BELEDIYESI,10168,36.8679199,30.6377522
ATATURK BLV-26,10169,36.8664016,30.635304
ATATURK BLV-27,10171,36.8636977,30.6312522
ATATURK BLV-28,10172,36.8620594,30.6288069
ATATURK BLV-29,10173,36.8600413,30.6257663
ATATURK BLV-30,10174,36.8582078,30.6232541
ATATURK BLV-31,10175,36.8532665,30.6178762
ATATURK BLV-32,10176,36.850912,30.6153933
ATATURK BLV-33,10177,36.8488553,30.6131623
AKDENIZ BLV-8,10180,36.8437859,30.5985951
AKDENIZ BLV-9,10181,36.840595,30.596733
AKDENIZ BLV-10,10182,36.8384306,30.5956827
DUMLUPINAR BLV-2,10185,36.8905786,30.6645883
SANAYI KARAKOLU,10192,36.9109755,30.6993272
GAZI BLV-3,10193,36.9121791,30.7052015
GAZI BLV-5,10196,36.9131091,30.7239313
GAZI BLV-6,10197,36.9126028,30.727505
GAZI BLV-7,10199,36.9120228,30.7312612
GAZI BLV-9,10202,36.9053851,30.7519042
GAZI BLV,10204,36.902914,30.756629
SERIK CD-3,10209,36.9116771,30.7737335
SERIK CD-4,10210,36.9167499,30.7824101
HAVAALANI LOJMANLARI,10211,36.9200846,30.7882446
SERIK CD-7,10214,36.9379474,30.8192603
MERSIN YOLU-8,10215,36.94713,30.838763
MEVLANA CD-1,10217,36.9440988,30.8531756
MEVLANA CD-2,10218,36.9462638,30.8505162
VEYSELLER CD-1,10219,36.9532897,30.8458438
VEYSELLER CD-2,10220,36.9485585,30.8455318
MERSIN YOLU-4,10223,36.9458919,30.8319212
MERSIN YOLU-5,10224,36.9419647,30.8246996
MERSIN YOLU-6,10225,36.9400243,30.8212164
MERSIN YOLU-7,10226,36.9387436,30.8189862
PINARLI ,10227,36.9361376,30.8143664
SERIK CD-9,10230,36.927273,30.798934
SERIK CD-10,10231,36.925731,30.796275
SERIK CD-11,10232,36.923144,30.791796
SERIK CD-12,10233,36.9195407,30.7854529
SERIK CD-13,10235,36.9164886,30.7802934
HAVAALANI CD,10236,36.8687522,30.7840149
SERIK CD-14,10237,36.9129843,30.7740992
HAVAALANI CD,10238,36.8718492,30.7853811
GAZI BLV-11,10240,36.90179,30.759565
ASMALI SK,10241,36.8675079,30.8064333
GAZI BLV-11,10242,36.9057271,30.7521953
ASMALI SK,10243,36.8702399,30.8089107
TOPTANCI HAL KAVSAGI ,10244,36.9102013,30.740925
GAZI BLV-13,10245,36.911603,30.7365758
GAZI BLV-14,10246,36.9125165,30.7310074
GAZI BLV-15,10247,36.9130372,30.7273206
GAZI BLV-16,10248,36.9135593,30.7238634
SEMA YAZAR SEMT POLIKLINIGI,10249,36.9136408,30.7187399
GAZI BLV-18,10250,36.9132293,30.7129712
GAZI BLV-19,10251,36.9130106,30.7103173
1878 SK,10252,36.8771395,30.762759
GAZI BLV-20,10253,36.9106819,30.6964066
1878 SK,10254,36.8775677,30.7659699
GAZI BLV-21,10255,36.9080597,30.6877091
3806 SK,10257,36.9032154,30.6622491
112 ACIL,10258,36.9045695,30.6631794
TIP FAKULTESI,10259,36.8977874,30.6650277
DUMLUPINAR BLV-5,10260,36.8914123,30.6638234
GAZI MUSTAFA KEMAL BLV-1,10261,36.8661233,30.6328891
GAZI MUSTAFA KEMAL BLV-2,10262,36.8685225,30.6305939
1879 SK,10263,36.8855762,30.7741708
GAZI MUSTAFA KEMAL BLV-3,10264,36.8718593,30.6274496
SEHITLER CD-1,10265,36.8795171,30.7533323
1150 SK,10266,36.8748151,30.6280051
CAMLIK CD-11,10267,36.8734119,30.6311935
19.CD-1,10268,36.8722102,30.6330863
NASHIRA PARK,10269,36.8738287,30.6349296
YALI CD-19,10270,36.8629722,30.76292
YALI CD-7,10272,36.8627439,30.7631344
BES YILDIZ SITESI,10273,36.8803688,30.6458857
15.CD,10274,36.8840251,30.6453701
MEVLANA PARKI,10275,36.8822261,30.648741
MELTEM BLV-1,10276,36.8924485,30.6664
MELTEM BLV-2,10277,36.892455,30.6689406
MELTEM BLV-3,10278,36.892375,30.6735298
EGITIM ARASTIRMA HASTANESI,10280,36.8913051,30.6758009
AHATLI ILKOKULU,10281,36.9104848,30.6481096
DEMIRCILER ICI,10282,36.8884638,30.7082784
CEBESOY CD-1,10284,36.8869695,30.7126434
GIYASEDDIN KEYHUSREV ANADOLU IMAM HATIP LISESI,10285,36.9107884,30.6504242
CEBESOY CD-2,10286,36.8842492,30.713514
GIYASEDDIN KEYHUSREV ANADOLU IMAM HATIP LISESI,10287,36.9110799,30.6503318
BURHANETTIN ONAT CD-3,10288,36.880273,30.7175537
BURHANETTIN ONAT CD-4,10290,36.8763377,30.7174487
BULENT ECEVIT BLV-1,10291,36.8581359,30.748263
BULENT ECEVIT BLV-2,10292,36.8580322,30.7508766
BULENT ECEVIT BLV-3,10293,36.8578727,30.7538202
BULENT ECEVIT BLV-5,10294,36.8575971,30.7610641
BULENT ECEVIT BLV-6,10295,36.8575485,30.7650074
BULENT ECEVIT BLV-7,10296,36.8574249,30.7695809
BULENT ECEVIT BLV-8,10297,36.857537,30.7718567
BULENT ECEVIT BLV-9,10298,36.8586804,30.77649
BULENT ECEVIT BLV-10,10299,36.8600824,30.7798877
BULENT ECEVIT BLV-11,10300,36.8611268,30.7837201
BULENT ECEVIT BLV-12,10301,36.8616399,30.7874951
MEHMET AKIF CD,10302,36.9126639,30.6872211
YALI CD-5,10303,36.865349,30.7824384
SELIMIYE CAMI,10304,36.9402324,30.6677809
BULENT ECEVIT BLV-12,10305,36.8618674,30.7872896
BULENT ECEVIT BLV-13,10306,36.8612318,30.7825998
BULENT ECEVIT BLV-14,10307,36.8601683,30.7795288
BULENT ECEVIT BLV-15,10308,36.8591214,30.7769416
BULENT ECEVIT BLV-16,10309,36.8578084,30.7722932
BULENT ECEVIT BLV-17,10310,36.8576426,30.7695476
BULENT ECEVIT BLV-18,10311,36.8577886,30.7649886
BULENT ECEVIT BLV-20,10312,36.8578002,30.7610836
BULENT ECEVIT BLV-21,10313,36.8578192,30.7576366
BULENT ECEVIT BLV-22,10314,36.8581577,30.7533414
BULENT ECEVIT BLV-23,10315,36.8582527,30.7508799
BULENT ECEVIT BLV-24,10316,36.8583265,30.7485585
BURHANETTIN ONAT CD-5,10317,36.8773521,30.7177438
BURHANETTIN ONAT CD-6,10319,36.8806518,30.7179955
6423 SK,10320,36.9440697,30.6820463
CEBESOY CD-11,10321,36.8843765,30.7136819
2979 SK,10322,36.9310897,30.6936214
CEBESOY CD-12,10323,36.8877445,30.7123379
466 SK,10324,36.8916865,30.7039241
HASAN SUBASI CD,10325,36.8892934,30.7028179
ESKI VALILIK,10326,36.8880398,30.7016135
SHT. BIN. CENGIZ TOYTUNC CD-1,10327,36.8881744,30.6995071
MILLI EGEMENLIK CD-1,10328,36.8896096,30.6969414
TEOMANPASA CD-1,10329,36.8890831,30.6939224
TEOMANPASA CD-2,10330,36.8886526,30.6915059
TEOMANPASA CD-3,10331,36.8880749,30.6877699
GAZI LISESI ,10332,36.8875084,30.6845234
2979 SK,10333,36.9298686,30.6917773
EGITIM ARASTIRMA HASTANESI,10334,36.8908402,30.676355
MELTEM BLV-4,10336,36.892633,30.6729706
MELTEM BLV-5,10337,36.8926704,30.6697142
8.CD-1,10338,36.8917199,30.6673184
STADYUM,10339,36.8879856,30.6668995
2979 SK,10340,36.9298569,30.6919316
KONYAALTI KAYMAKAMLIGI,10341,36.8767742,30.6421013
19.CD-5,10342,36.8757124,30.6366634
19.CD-6,10343,36.872334,30.6329211
CAMLIK CD-2,10344,36.8734022,30.6314002
2970 SK,10345,36.9305054,30.6944314
GAZI MUSTAFA KEMAL BLV-4,10346,36.8718622,30.6271405
GAZI MUSTAFA KEMAL BLV-5,10347,36.8688068,30.6300019
GAZI MUSTAFA KEMAL BLV-6,10348,36.8661578,30.6324706
353 SK-1,10349,36.8645317,30.6246575
344 SK-1,10350,36.8681575,30.6252642
344 SK-2,10351,36.8691024,30.6280328
ANADOLU CD,10352,36.8701787,30.6297973
17.CD-1,10353,36.8750329,30.6369277
17.CD-2,10354,36.8750117,30.6403176
6.CD,10355,36.8734016,30.6467723
DEFTERDARLIK BLV-1,10356,36.8922672,30.6768336
DEFTERDARLIK BLV-2,10357,36.892196,30.6788739
YILDIZ CD-1,10358,36.8923508,30.6818152
YILDIZ CD-2,10359,36.8926876,30.6845415
YILDIZ CD-3,10360,36.8928069,30.6864336
TONGUC CD-1,10361,36.8934311,30.6890914
TONGUC CD-2,10362,36.8941989,30.6914023
AYDIN KANZA PARKI,10363,36.8924906,30.6937834
YUZUNCUYIL,10364,36.891989,30.6990601
MURATPASA,10366,36.8936139,30.7044791
EVLIYA CELEBI CD-2,10367,36.8989216,30.7082122
FETTAHLI CD,10368,36.987935,30.8018646
FATIH CD-5,10369,36.9058821,30.7000889
KEZIBAN ISMAIL ERTEN ILKOKULU,10370,36.9856812,30.8046809
KONUKSEVER MH-1,10371,36.9081997,30.7065449
KARACAOGLAN CD-3,10372,36.9043642,30.7101905
KEZIBAN ISMAIL ERTEN ILKOKULU,10373,36.9859018,30.8046581
KIZILIRMAK CD-4,10374,36.9034368,30.7160238
KIZILIRMAK CD-5,10375,36.8994349,30.7152364
BUYUKSEHIR BELEDIYESI,10376,36.895926,30.708739
BESSEHITLER PARKI,10378,36.8922183,30.6941419
TONGUC CD-9,10379,36.8943956,30.691289
TONGUC CD-10,10380,36.8938135,30.6895437
YILDIZ CD-4,10381,36.8930395,30.6869675
YILDIZ CD-6,10383,36.8925578,30.6816319
DEFTERDARLIK BLV-3,10384,36.8924593,30.6784785
17.CD-3,10385,36.8751399,30.6404659
353 SK-4,10388,36.8640079,30.6246792
29.CD-1,10390,36.8763822,30.6263863
29.CD-2,10391,36.8790887,30.6262328
24.CD-3,10393,36.8850602,30.6259695
UNCALI CEVIK KUVVET,10395,36.8919013,30.6264707
UNCALI CD-2,10396,36.8942114,30.6278892
EMNIYET CD-3,10397,36.893587,30.6302284
1346 SK-4,10399,36.889041,30.6301057
1346 SK-1,10400,36.889734,30.630328
UNCALI CD-5,10402,36.8938509,30.6272522
UNCALI CEVIK KUVVET,10403,36.8925645,30.6265695
24.CD-4,10405,36.8857266,30.6257491
24.CD-5,10407,36.8801582,30.6259195
24.CD-6,10408,36.8783438,30.6260233
24.CD-7,10409,36.8758609,30.6261679
ALI CETINKAYA CD-3,10412,36.8880511,30.7228275
ALI CETINKAYA CD-4,10413,36.8867638,30.7270127
MEYDAN ,10414,36.8870553,30.7335504
ASPENDOS BLV-17,10415,36.8878916,30.7370297
ASPENDOS BLV-16,10416,36.8887455,30.7405277
ASPENDOS BLV-15,10417,36.8896909,30.74412
ASPENDOS BLV-13,10418,36.8909704,30.7493836
YALI CD-18,10422,36.8615269,30.7662911
YALI CD-17,10423,36.8606536,30.7688579
YALI CD-9,10424,36.8604462,30.7699035
YALI CD-15,10425,36.861265,30.773375
GUZELOLUK MH-14,10426,36.875514,30.7604522
HAVAALANI CD-1,10428,36.8605869,30.7912677
YALI CD-13,10430,36.8653788,30.7785849
YALI CD-8,10433,36.8615094,30.7659011
GUZELOLUK MH-12,10434,36.8719094,30.76343
GUZELOLUK MH-13,10436,36.8733106,30.7629446
ASPENDOS BLV-6,10438,36.8912377,30.7493338
ASPENDOS BLV-4,10439,36.8897835,30.7435144
ASPENDOS BLV-2,10440,36.8882084,30.7370623
ASPENDOS BLV-1,10441,36.887629,30.734525
ALI CETINKAYA CD-2,10442,36.8869462,30.7271426
ALI CETINKAYA CD-1,10443,36.8882813,30.7232536
138 SK-1,10446,36.8401715,30.5893439
153 SK-1,10447,36.8426267,30.5927517
164 SK,10448,36.8451183,30.5958859
169 SK-1,10449,36.8484383,30.5963699
252 SK-2,10452,36.8576425,30.6011883
252 SK-3,10453,36.858533,30.603811
BOGACAY CD-9,10454,36.8588247,30.6060131
BOGACAY CD-10,10455,36.8568831,30.608741
BOGACAY CD-11,10456,36.8553655,30.6109993
33 SK,10457,36.8480333,30.6071676
NARENCIYE CD-3,10458,36.8815306,30.7200841
NARENCIYE CD-4,10459,36.8809696,30.7218972
AVNI TOLUNAY CD-2,10460,36.8788142,30.7245224
AVNI TOLUNAY CD-3,10461,36.8751967,30.7284563
FETTAHLI,10462,36.9911219,30.8114334
AVNI TOLUNAY CD-4,10463,36.8721182,30.7319645
SINANOGLU CD-1,10464,36.8690833,30.7352765
SINANOGLU CD-12,10465,36.8689756,30.7357578
AVNI TOLUNAY CD-5,10466,36.8717295,30.7326924
AVNI TOLUNAY CD-6,10468,36.8755469,30.7283678
AVNI TOLUNAY CD-7,10469,36.8789334,30.7247764
NARENCIYE CD-2,10470,36.8816209,30.7204906
BOGACAY CD-1,10471,36.8533925,30.6141788
BOGACAY CD-2,10472,36.855539,30.6111212
BOGACAY CD-3,10473,36.8570478,30.6089339
BOGACAY CD-4,10474,36.8591284,30.6059568
252 SK-4,10475,36.8583749,30.6030323
FETTAHLI,10476,36.9943546,30.8161339
SEYIT ONBASI PARKI,10477,36.8444303,30.5955908
HURMA MEZARLIGI,10478,36.8613957,30.5976141
ALICIKLER CD,10479,36.9840892,30.8182649
277 SK-1,10480,36.8550458,30.6018859
ISMAIL OGAN CD,10482,36.9760275,30.8317202
PORTAKAL CICEGI CD-5,10483,36.8736296,30.7199228
PORTAKAL CICEGI CD-6,10484,36.8735784,30.7222516
PORTAKAL CICEGI CD-7,10485,36.8735644,30.7251472
PORTAKAL CICEGI CD-8,10486,36.8734236,30.7283195
SINANOGLU CD-2,10487,36.867029,30.7378593
SINANOGLU CD-3,10488,36.8655975,30.7397364
SINANOGLU CD-4,10489,36.864044,30.74236
SINANOGLU CD-5,10490,36.8616649,30.744386
SINANOGLU CD-6,10491,36.8591661,30.7456026
SINANOGLU CD-7,10492,36.8589644,30.7459006
SINANOGLU CD-8,10493,36.8618502,30.7445127
SINANOGLU CD-9,10494,36.864407,30.7422057
SINANOGLU CD-10 ,10495,36.8659262,30.7396714
SINANOGLU CD-11,10496,36.8671895,30.7380147
PORTAKAL CICEGI CD-1,10498,36.8735606,30.7287944
PORTAKAL CICEGI CD-2,10499,36.8737568,30.7251
PORTAKAL CICEGI CD-3,10500,36.8737705,30.7222706
PORTAKAL CICEGI CD-4,10501,36.8737933,30.7193103
CEBESOY CD-7,10502,36.8752692,30.7169691
CEBESOY CD-8,10503,36.8772486,30.7146977
CEBESOY CD-9,10504,36.8794453,30.7141283
CEBESOY CD-10,10505,36.8825273,30.713859
ISMAIL OGAN CD,10506,36.9734411,30.8334395
277 SK-3,10507,36.8543745,30.6020844
36.CD-4,10508,36.8523942,30.6021152
36.CD-5,10509,36.8512651,30.5999976
AKDENIZ BLV-2,10511,36.850695,30.62268
AKDENIZ BLV-3,10512,36.854467,30.627775
AKDENIZ BLV-5,10514,36.861762,30.638041
KONYAALTI BELEDIYESI,10515,36.864392,30.642623
AKDENIZ BLV-7,10516,36.866726,30.646051
AKDENIZ BLV-8,10517,36.868996,30.649496
AKDENIZ BLV-9,10518,36.871705,30.653655
AKDENIZ BLV-10,10519,36.873291,30.656086
AKVARYUM,10520,36.875674,30.659314
PERGE BLV-6,10521,36.8744965,30.732096
PERGE BLV-8,10523,36.8806807,30.7390321
PERGE BLV-9,10524,36.8825819,30.7398193
PERGE BLV-1,10526,36.885833,30.739267
PERGE BLV-3,10528,36.8803265,30.7383546
KONYAALTI CD-2,10529,36.885565,30.696203
PERGE BLV-5,10530,36.874522,30.73168
KONYAALTI CD-2,10531,36.8852789,30.6914785
KONYAALTI CD-3,10532,36.8850008,30.6863036
KONYAALTI CD-4,10533,36.8848286,30.6822583
DUMLUPINAR BLV-6,10534,36.8812378,30.6616427
AKDENIZ BLV-11,10535,36.876191,30.659585
AKDENIZ  BLV-12,10536,36.871342,30.652884
AKDENIZ  BLV-14,10538,36.867167,30.646435
KONYAALTI BELEDIYESI,10539,36.864982,30.643115
AKDENIZ  BLV-16,10541,36.857309,30.631075
AKDENIZ  BLV-17,10542,36.854923,30.628067
AKDENIZ  BLV-18,10543,36.850802,30.622689
AKDENIZ  BLV-19,10544,36.8495661,30.6209757
ANAFARTALAR CD-3,10545,36.8957343,30.692062
ATATURK DEVLET HASTANESI,10546,36.898203,30.690598
VATAN BLV-1,10547,36.901184,30.688599
MITHATPASA CD-4,10552,36.9138804,30.6877488
MITHATPASA CD-5,10553,36.915555,30.686488
MITHATPASA CD-6,10554,36.91763,30.684965
MITHATPASA CD,10555,36.9201046,30.6839038
GALIP KUSCUOGLU CD-1,10557,36.923561,30.68691
6375 SK-1,10562,36.931953,30.683249
6375 SK-2,10563,36.9324011,30.6785962
6375 SK-3,10564,36.9357356,30.6760061
6410 SK-1,10566,36.9438607,30.689224
6410 SK-2,10567,36.946727,30.687681
6454.SK,10568,36.9532336,30.6856669
6444.SK,10569,36.9505115,30.6820297
BARIS MANCO CD-1,10570,36.949558,30.679205
6375.SK-4,10571,36.9429079,30.6740514
2936.SK-2,10573,36.9274571,30.6840589
2908.SK-2,10574,36.9240142,30.6867943
2368.SK,10575,36.921325,30.68642
MITHATPASA CD-7,10576,36.9173461,30.6849614
MITHATPASA CD-8,10577,36.916469,30.685572
MITHATPASA CD-9,10578,36.915404,30.686351
MITHATPASA CD-10 ,10579,36.91362,30.687664
MITHATPASA CD-11,10580,36.911894,30.68895
MITHATPASA CD-12,10581,36.9106169,30.6899813
VATAN BLV-3,10583,36.9036814,30.6841812
VATAN BLV-4,10584,36.9010982,30.6882194
ATATURK DEVLET HASTANESI,10585,36.8980023,30.6904821
ANAFARTALAR CD-2,10586,36.8955652,30.691939
MELTEM BLV-6,10587,36.8926746,30.6664841
ADLIYE,10588,36.8944155,30.6654616
IL JANDARMA KOMUTANLIGI,10589,36.8986832,30.6658466
HURRIYET CD-1,10590,36.9009891,30.6605217
HURRIYET CD-2,10591,36.9007165,30.6566865
75.YIL CD-1,10592,36.9053277,30.650403
75.YIL CD-2,10593,36.9086377,30.6483861
DUMLUPINAR BLV-10 ,10597,36.9146596,30.6660395
OTOGAR DURAGI,10598,36.917517,30.6673665
4980 SK,10601,36.931426,30.6698361
4979.SK,10603,36.9407046,30.6561864
5370.SK-2,10604,36.947697,30.6586477
3453.SK,10605,36.948407,30.654977
3403 SOKAK,10606,36.9476522,30.6520214
3403.SK-2,10607,36.9442766,30.6506195
4980.SK-1,10608,36.936865,30.666395
4980 SK,10611,36.940428,30.663308
4980 SOKAK,10612,36.938915,30.665169
4980.SK-4,10613,36.9343178,30.6677215
4980.SK-5,10614,36.9278169,30.6711245
DUMLUPINAR BLV-13,10616,36.9174854,30.666223
DUMLUPINAR BLV-14,10617,36.915672,30.66539
DUMLUPINAR BLV-15,10618,36.9134409,30.6643861
DUMLUPINAR BLV-16,10619,36.9102042,30.66301
HURRIYET CD-12,10622,36.900181,30.656023
HURRIYET CD-13,10623,36.9007045,30.6611843
KAZIM KARABEKIR CD-1,10624,36.8936805,30.6802143
KAZIM KARABEKIR CD-2,10625,36.8962957,30.6804287
KAZIM KARABEKIR CD-3,10626,36.898752,30.6805715
KAZIM KARABEKIR CD-4,10627,36.902495,30.680806
KAZIM KARABEKIR CD-5,10628,36.9042867,30.6801386
NAMIK KEMAL BLV-1,10629,36.909498,30.680035
NAMIK KEMAL BLV-2,10630,36.911548,30.67846
ANTKOOP,10632,36.9170537,30.6896021
YILDIRIM BEYAZIT CD-1,10633,36.919665,30.693938
BARIS MANCO  BLV-1,10635,36.9255124,30.690785
2906.SK,10636,36.925724,30.6870288
6350.SK,10639,36.9347011,30.6744109
6318.SK,10640,36.9315489,30.6755574
6109.SK-1,10641,36.9284702,30.6829636
BARIS MANCO BLV-6,10644,36.925009,30.691104
YILDIRIM BEYAZIT CD-2,10645,36.9231247,30.6919359
YILDIRIM BEYAZIT CD,10647,36.9174084,30.693895
2617.SK-2,10648,36.9175044,30.6915901
ANTKOOP,10649,36.9172672,30.6892648
BARIS TAKSI,10650,36.9167302,30.6846284
CAGLAYAN ANADOLU LISESI,10651,36.9149074,30.6807098
NAMIK KEMAL BULVARI,10653,36.9126276,30.677173
NAMIK KEMAL BLV-8,10654,36.9093645,30.6796747
281 SK,10655,36.9041823,30.6822703
KAZIM KARABEKIR CD-5,10656,36.9026618,30.6806488
KAZIM KARABEKIR CD-6,10657,36.9005604,30.6805184
KAZIM KARABEKIR CD-7,10658,36.8962917,30.680259
KAZIM KARABEKIR CD-8,10659,36.893748,30.680025
RAUF DENKTAS CD-1,10660,36.8618933,30.7929052
RAUF DENKTAS CD-2,10661,36.8620109,30.7953865
RAUF DENKTAS CD-3,10662,36.8621073,30.797593
RAUF DENKTAS CD-4,10664,36.862246,30.801045
RAUF DENKTAS CD-5,10665,36.8635113,30.8060345
RAUF DENKTAS CD-6,10667,36.8651672,30.8094347
RAUF DENKTAS CD-7,10668,36.8667675,30.812697
RAUF DENKTAS CD-8,10669,36.8678843,30.8149879
RAUF DENKTAS CD-9,10670,36.8689012,30.8177885
KARDES KENTLER CD,10672,36.877886,30.818397
KARDES KENTLER CADDESI,10673,36.8833639,30.8192527
KARDES KENTLER CD,10674,36.8856205,30.8201014
KARDES KENTLER CD-4,10675,36.8933376,30.8210748
KARDES KENTLER CD,10676,36.89887,30.819673
KARDES KENTLER CD,10677,36.903342,30.817646
KARDES KENTLER CD-7,10678,36.9157471,30.8169123
KARA ASLAN CD,10681,36.9042323,30.8249632
KARDES KENTLER CD,10682,36.8888519,30.8205494
KARDES KENTLER CD-11,10683,36.8829515,30.8186526
KARDES KENTLER CD,10684,36.877362,30.818278
KARDES KENTLER CD-13,10685,36.8708027,30.819688
RAUF DENKTAS CD-12,10686,36.8690984,30.8176609
RAUF DENKTAS CD-13,10688,36.8679089,30.8144784
RAUF DENKTAS CD-14,10689,36.866769,30.812117
RAUF DENKTAS CD-15,10690,36.8647613,30.8080355
RAUF DENKTAS CD-17,10692,36.8631017,30.8046347
KAPLAN SOKAK,10693,36.862484,30.8007543
RAUF DENKTAS CD-19,10694,36.8623343,30.7973612
RAUF DENKTAS CD,10695,36.8621946,30.7952278
RAUF DENKTAS CD-21,10696,36.8620447,30.7920778
ERASTA,10697,36.9052272,30.6631856
BUYUKSEHIR BELEDIYESI,10698,36.8952655,30.7075182
MEVLANA CD-1,10699,36.893802,30.7152523
MEVLANA CD-2,10700,36.8911126,30.7169422
ASPENDOS BLV-12,10701,36.8921197,30.7530976
ASPENDOS BLV-10,10703,36.896705,30.760786
ASPENDOS BLV-9,10704,36.896789,30.760259
ASPENDOS BLV-8,10705,36.8951157,30.757521
ASPENDOS BLV-7,10706,36.8922213,30.7526076
MEVLANA CD-3,10707,36.891164,30.7173742
MEVLANA CD-4,10708,36.8938396,30.715612
DUMLUPINAR BLV-9,10709,36.909847,30.663911
366 SK,10710,36.861463,30.6257724
32.CD-1,10711,36.8828874,30.6285761
CAMLIK CD-5,10712,36.8847874,30.6303321
CAMLIK CD-6,10713,36.887412,30.630417
1336 SK-1,10714,36.8917546,30.633286
1321.SK-1,10715,36.8933375,30.6342426
1315 SK-1,10716,36.8954067,30.6331867
1310.SK-2,10717,36.898627,30.63237
HURRIYET CD-10,10718,36.899924,30.635382
HURRIYET CD-11,10719,36.9009899,30.6470882
TARIK AKILTOPU CD-3,10720,36.8933711,30.6753004
MURATPASA LISESI,10721,36.8954082,30.6742315
TOROSLAR CD-3,10722,36.8970893,30.6704743
BUYUKSEHIR ITFAIYE,10723,36.9012651,30.6420058
HURRIYET CD-5,10724,36.90065,30.6386996
HURRIYET CD-6,10725,36.900145,30.633747
UNCALI CD-3,10726,36.8989485,30.6303687
UNCALI CD-4,10727,36.897073,30.629308
CAMLIK CD-7,10728,36.887177,30.630224
32.CD-4,10730,36.8829691,30.6283248
1310.SK-1,10731,36.8950916,30.629389
1321.SK-2,10732,36.8935384,30.6336926
EMNIYET CD-1,10733,36.8923011,30.6323123
10.SK-1,10734,36.8709998,30.8254865
10 SOKAK,10735,36.871813,30.8289055
10.SK-3,10736,36.8729895,30.8322259
10.SK-4,10737,36.8763524,30.8330677
10.SK-5,10738,36.8799327,30.8336781
10.SK-6,10739,36.8816158,30.8355972
10 SK-7,10740,36.8816252,30.8351777
10.SK-8,10741,36.8788977,30.8330069
10.SK-9,10742,36.8762912,30.8327502
10.SK-10,10743,36.8733654,30.8320724
10 SK-11,10744,36.8720985,30.8291139
10.SK-12,10745,36.8714108,30.826147
10.SK-13,10746,36.8706565,30.8226065
NAMIK KEMAL BLV-5,10747,36.918833,30.6724525
NAMIK KEMAL BLV-6,10748,36.9162904,30.6743879
NAMIK KEMAL BLV-3,10749,36.9138482,30.6767158
NAMIK KEMAL BLV-4,10750,36.9154134,30.6755369
ORGANIZE SANAYI,10751,37.0562248,30.6202629
ORGANIZE SANAYI,10752,37.0656372,30.6276484
HURRIYET CD-3,10753,36.9013019,30.6483744
ORGANIZE SANAYI 24.CADDE,10754,37.0706099,30.6247476
GAZI MUSTAFA KEMAL BLV-7,10755,36.8638381,30.6346079
436 SOKAK,10757,36.8678385,30.6328782
ORGANIZE SANAYI 24.CADDE,10758,37.0714574,30.6279072
75.YIL CD-4,10760,36.915312,30.646274
75.YIL CD-5,10761,36.9129335,30.6466276
75.YIL CD-6,10762,36.9059498,30.649609
3805.SK-1,10763,36.9021388,30.6530473
3805.SK-2,10764,36.9025042,30.6547871
KULTUR MAHALLE MUHTARLIGI,10765,36.902764,30.6566406
ORGANIZE SANAYI 24.CADDE,10766,37.07388,30.6285295
3805.SK-4,10767,36.9028765,30.6597242
KULTUR MAHALLESI,10768,36.9028578,30.6560402
3805.SK-6,10769,36.902285,30.6532297
3147.SK,10770,36.912673,30.649048
SHT.BIN.ERDOGAN OZDEMIR CD-1,10771,36.9101819,30.6456601
SHT.BIN.ERDOGAN OZDEMIR CD-2,10772,36.910321,30.642894
SHT.BIN.ERDOGAN OZDEMIR CD-3,10773,36.9106538,30.6362841
3760.SK,10774,36.9023651,30.6445957
GULVEREN DURAGI,10775,36.901915,30.6501366
TURGUT REIS CD-1,10776,36.8976201,30.6857053
TURGUT REIS CD-2,10777,36.9000437,30.6847862
9.SK-1,10778,36.9456648,30.7863312
OKUL SK,10779,36.9552905,30.7722817
UZUN SK,10780,36.9481223,30.7741809
10 SK,10782,36.9349639,30.7750533
KASLILAR SK-1,10783,36.9269691,30.7793017
ORGANIZE SANAYI 24.CD,10784,37.0789602,30.6271683
GULLUK ,10785,36.888008,30.6965932
ORGANIZE SANAYI 24.CD,10786,37.0834699,30.6245263
ORGANIZE SANAYI 24.CADDE,10787,37.083441,30.6242916
ORGANIZE SANAYI 24.CADDE,10788,37.0793336,30.62677
KAZIM KARABEKIR CD-9,10789,36.9003882,30.6806995
ORGANIZE SANAYI 24.CADDE,10790,37.0712958,30.6277222
PINAR CD-5,10791,36.898915,30.6735395
PINAR CD-1,10792,36.900809,30.673432
ORGANIZE SANAYI 24.CADDE,10793,37.0707672,30.6248267
MEHMET ATAY CD-9,10795,36.9249532,30.7359801
DEMIRGUL CAMI,10796,36.9139664,30.7361434
5844 SOKAK,10798,36.940644,30.744519
MUAMMER AKSOY CD-13,10800,36.950538,30.7441142
DR.SADIK AHMET CD,10801,37.0373088,30.6046793
MUAMMER AKSOY CD-14,10802,36.95001,30.72547
DUDEN SELALESI,10804,36.9641235,30.7257158
YESILIRMAK CD-22,10806,36.9408232,30.7103757
GOKTURK CD,10807,37.020414,30.6352458
GOKSU CD,10808,36.9361348,30.7071305
PALMIYE CD,10809,37.0199108,30.6455924
SUTCULER CD-12,10810,36.928077,30.714193
SAKARYA  BLV-7,10812,36.9187383,30.7000498
CEYHAN  CD-3,10814,36.9243974,30.7010811
SELALE CD.-4,10816,36.9259593,30.6950693
SELALE CD-4,10818,36.9289812,30.6994545
HURRIYET CD-16,10826,36.900236,30.638531
OTOGAR,10828,36.920686,30.6650235
BOGACAY CD-12,10830,36.852972,30.6143552
LIMAN CD-3,10832,36.8417018,30.6123801
PERGE BLV-2,10836,36.883615,30.7395611
ISMAIL CEM CD-3,10838,36.8808239,30.7315284
TESISLER CD-3,10842,36.857195,30.817237
LARA TURIZM YOLU,10844,36.8598723,30.8284273
LARA T.YOLU-16,10846,36.8611461,30.8420406
LARA T.YOLU-17,10848,36.8576045,30.8837099
TESISLER CD-5,10850,36.860106,30.8281063
TESISLER CD-6,10853,36.8570869,30.8167102
HAVAALANI CD-3,10856,36.8603014,30.7912007
SAHIL CD,10860,36.878456,30.91125
AKSU CD-1,10862,36.9371489,30.8400283
314.SK,10864,36.928353,30.840353
KARDES KENTLER CD-14,10866,36.8955409,30.8205497
HAVAALANI CD-4,10868,36.8727622,30.7858343
TERMESOS  BLV-9,10870,36.8936695,30.7370901
TERMESOS BLV-5,10871,36.893732,30.7367904
SELALE SK-1,10874,36.9253691,30.7744579
VARSAK AKTARMA MERKEZI,10876,36.9488472,30.7065719
SULEYMAN DEMIREL-BLV-14,10877,36.9457861,30.7085272
DUDEN CD-1,10879,36.950214,30.713298
DUDEN CD-2,10881,36.9562161,30.7162987
DUDEN CD-3,10882,36.9609504,30.7184936
DUDEN CD-4,10883,36.9643459,30.7210007
ANDIZLI SK-1,10885,36.9573238,30.7663189
ANDIZLI SK-2,10886,36.9551286,30.7661013
ANTALYA CD-1,10888,36.9496122,30.7597828
19.CD-3,10890,36.8785566,30.6391124
32.CD-3,10892,36.8836787,30.6342174
32.CD-2,10893,36.8835506,30.6344414
20.CD,10894,36.882569,30.63937
19.CD-4,10895,36.8787201,30.6389317
ANTALYA CD-2,10897,36.9200656,30.7674254
ANTALYA CD-3,10898,36.9238773,30.7657449
ANTALYA CD-4,10899,36.9270596,30.7648603
ANTALYA CD-5,10901,36.9492615,30.7600259
SARDUNYA SK,10902,36.9504214,30.7627054
DUDEN SELALESI,10905,36.9648375,30.7255682
3168.SK,10907,36.9619883,30.7307849
HURRIYET CD,10908,36.9541511,30.7433806
SPOR 89 SITESI,10909,36.9584367,30.7528611
KAKTUS SK-1,10910,36.9459767,30.7570894
KAKTUS SK-2,10913,36.94686,30.7559477
HURRIYET  CADDESI,10914,36.9542339,30.7435426
HURRIYET  CD-3,10915,36.9563572,30.7435291
BOGACAY CD-7,10916,36.8618749,30.6016185
SULEYMAN DEMIREL BLV-1,10919,36.9894574,30.7161089
MASAL PARKI,10920,36.9853466,30.7151692
SULEYMAN DEMIREL BLV-3,10921,36.9821594,30.7147952
SULEYMAN DEMIREL BLV-5,10922,36.9762141,30.7140275
SULEYMAN DEMIREL BLV-6,10923,36.9732463,30.7137205
SULEYMAN DEMIREL BLV-7,10924,36.9696202,30.7136982
SULEYMAN DEMIREL BLV-8,10925,36.9661524,30.7129221
SULEYMAN DEMIREL BLV-9,10926,36.961965,30.7112174
SULEYMAN DEMIREL BLV-10,10927,36.9599045,30.7103588
SULEYMAN DEMIREL BLV-11,10928,36.9561952,30.70874
SULEYMAN DEMIREL BLV-12,10929,36.952987,30.707897
YESILIRMAK CD-1,10931,36.9430402,30.7093457
YESILIRMAK CD-2,10932,36.9412735,30.7098627
YESILIRMAK CD-3,10933,36.9384491,30.7105897
YESILIRMAK CD-4,10934,36.9347677,30.7114184
YESILIRMAK CD-5,10935,36.9320348,30.7120656
YESILIRMAK CD-6,10936,36.9298114,30.7125611
YESILIRMAK CD-7,10937,36.9281791,30.7129332
YESILIRMAK CD-8,10938,36.9249476,30.7136571
YESILIRMAK CD-9,10939,36.9210662,30.7144991
YESILIRMAK CD-10,10940,36.918698,30.714964
KEPEZ BELEDIYESI,10941,36.9146464,30.7150596
KIZILIRMAK CD-2,10943,36.9079551,30.7156739
KIZILIRMAK CD-3,10944,36.9056987,30.7160017
AKDENIZ  UNV-2,10946,36.8927082,30.6545413
AKDENIZ  UNV-3,10947,36.8918887,30.6456698
AKDENIZ  UNV-5,10948,36.8952896,30.6545229
AKDENIZ  UNV-6,10949,36.8976633,30.6539235
AKDENIZ  UNV-9,10952,36.8997007,30.6553429
AKDENIZ  UNV-10,10953,36.8985249,30.6534262
AKDENIZ  UNV-11,10954,36.8974682,30.6536755
AKDENIZ  UNV-12,10955,36.8954118,30.6541749
AKDENIZ  UNV-14,10956,36.8950544,30.6521254
AKDENIZ  UNV-15,10957,36.8950366,30.6491013
AKDENIZ  UNV-16,10958,36.8922086,30.645437
AKDENIZ  UNV-19,10959,36.8924183,30.6547203
AKDENIZ  UNV-20,10960,36.8924628,30.6583769
KIZILIRMAK CD-7,10963,36.9002107,30.7160407
KIZILIRMAK CD-8,10964,36.9033995,30.7164179
KIZILIRMAK CD-9,10965,36.9057221,30.7163688
KIZILIRMAK CD-10,10966,36.9080748,30.7160623
KIZILIRMAK CD-11,10967,36.9110495,30.7157709
KEPEZ BELEDIYESI,10968,36.914875,30.7155589
YESILIRMAK CD-13,10969,36.9186755,30.7153624
YESILIRMAK CD-14,10970,36.9209581,30.714889
YESILIRMAK CD-15,10971,36.925724,30.7138364
YESILIRMAK CD-16,10972,36.928469,30.7132195
YESILIRMAK CD-18,10973,36.931892,30.7124746
YESILIRMAK CD-19,10974,36.9346171,30.7118733
YESILIRMAK CD-20,10975,36.9370285,30.7113388
YESILIRMAK CD-21,10976,36.93915,30.710783
SULEYMAN DEMIREL BLV-15,10977,36.9462726,30.7088039
SULEYMAN DEMIREL BLV-17,10979,36.9530133,30.7082741
SULEYMAN DEMIREL BLV-18,10980,36.9566009,30.7094187
SULEYMAN DEMIREL BLV-19,10981,36.9599672,30.710821
SULEYMAN DEMIREL BLV-20,10982,36.962228,30.711744
SULEYMAN DEMIREL BLV-21,10983,36.9664395,30.7134484
SULEYMAN DEMIREL BLV-23,10985,36.9733135,30.7141031
SULEYMAN DEMIREL BLV-24,10986,36.976465,30.714483
SULEYMAN DEMIREL BLV-26,10987,36.982045,30.715165
MASAL PARKI,10988,36.9858041,30.7157014
SAKARYA  BLV-1,10991,36.9179684,30.7137565
SAKARYA  BLV-2,10992,36.9187277,30.709724
SAKARYA  BLV-3,10993,36.9191089,30.7063991
SAKARYA  BLV-6,10997,36.9187562,30.6970146
SUNA INAN KIRAC PARKI,10999,36.9091953,30.640417
3734 SOKAK,11000,36.9054389,30.6388687
3709.SK-1,11001,36.90734,30.6422987
3709.SK-3,11003,36.9053953,30.6449423
3760 SOKAK,11004,36.9024067,30.6416748
DUMLUPINAR BLV.YANYOLU,11005,36.9074119,30.6637061
ZIYA GOKALP CD-1,11006,36.9158513,30.675953
ZIYA GOKALP CD-2,11007,36.9165158,30.6779465
SAKARYA  BLV-14,11009,36.9184,30.697288
SAKARYA  BLV-15,11010,36.9184342,30.7001796
SAKARYA  BLV-16,11011,36.918839,30.7067012
SAKARYA  BLV-17,11012,36.91794,30.7121985
BURHANETTIN ONAT CD-1,11013,36.8860405,30.7192439
BURHANETTIN ONAT CD-7,11014,36.883112,30.7185731
BURHANETTIN ONAT CD-8,11015,36.8861275,30.719627
AHMET CESME CD,11017,36.9841728,30.7052738
HACI MUSTAFA CD,11019,36.9764847,30.7081745
FATIH TERIM CD-2,11020,36.9758113,30.7066842
FATIH TERIM CD-3,11021,36.9746123,30.7039691
FATIH TERIM CD-4,11022,36.9732273,30.7017035
FATIH TERIM CD-5,11023,36.9727675,30.6981973
KARACABEY CD,11024,36.9715377,30.6964696
1542 SK-1,11025,36.9681576,30.70252
1545 SK-2,11026,36.9666749,30.704392
1538 SK-2,11027,36.9652425,30.7049315
AHMET CESME CD,11031,36.9809809,30.7075627
GOKSU CD,11034,36.9294338,30.7071139
GOKSU CD-3,11035,36.9244299,30.7073111
ALIYA IZZET BEGOVIC CD-7,11036,36.9219111,30.7071854
ALIYA IZZET BEGOVIC CD-8,11037,36.9216753,30.7041656
DUNYA GOZ HASTANESI,11040,36.9172898,30.6943806
YILDIRIM BEYAZIT CD,11041,36.9141902,30.6958043
YILDIRIM BEYAZIT CD-4,11042,36.9128237,30.6966827
EVLIYA CELEBI CD-4,11044,36.9004518,30.7031342
EVLIYA CELEBI CD-5,11045,36.8986997,30.7080629
YILDIRIM BEYAZIT CD,11047,36.9124893,30.6972103
YILDIRIM BEYAZIT CD-5,11048,36.9149249,30.6956977
DUNYA GOZ HASTANESI,11049,36.9172261,30.6946239
ALIYA IZZET BEGOVIC CD-1,11050,36.920625,30.695865
ALIYA IZZET BEGOVIC CD-3,11051,36.921435,30.703831
GOKSU CD-4,11052,36.9246025,30.7075407
SELALE CD-17,11056,36.9287775,30.698855
SELALE CD,11057,36.9270415,30.6954096
2892 SK,11059,36.9239696,30.6824329
HALIDE EDIP CD-1,11061,36.9224243,30.6775024
SAKARYA BLV-9,11063,36.9222957,30.6717499
ANTALYA BULVARI YANYOL,11064,36.9238847,30.6687198
SAKARYA  BLV-10 ,11065,36.9220608,30.6718676
SAKARYA BLV-11,11066,36.9212391,30.6750999
2892 SOKAK,11067,36.9240681,30.681822
2892.SK-3,11068,36.9232589,30.6851966
MEVLANA CD-4,11070,36.98474,30.7410334
5664 SOKAK,11072,36.9598238,30.7274067
5664.SK-2,11073,36.9541011,30.7273001
SUTCULER CD-1,11074,36.9484911,30.7269017
SUTCULER CD-2,11075,36.9444026,30.7248275
SUTCULER CD-3,11076,36.941967,30.724054
SUTCULER CD-4,11077,36.9390352,30.7221314
SUTCULER CD-5,11078,36.93604,30.7189571
SUTCULER CD-6,11079,36.9328803,30.71697
SUTCULER CD-7,11080,36.9306114,30.7157834
TOROSLAR CD-6,11081,36.8968771,30.6709529
SUTCULER CD-8,11082,36.9305649,30.7160013
SUTCULER CD-9,11083,36.9345116,30.7179456
SUTCULER-9,11084,36.9361604,30.7193743
SUTCULER CD-10,11085,36.9385867,30.7220871
SUTCULER CD-11,11087,36.948604,30.727264
SELALE CD,11088,36.9824508,30.7410152
MEVLANA CD-5,11089,36.9847959,30.7415008
MEHMET AKIF  CADDESI,11090,36.9129116,30.6874816
MEHMET AKIF  CD-2,11091,36.9118862,30.6847411
MEHMET AKIF CD-3,11092,36.911767,30.6849796
HASTANE CD-1,11093,36.9315824,30.7206794
HASTANE CD-3,11095,36.9303418,30.731142
KIRCICEGI CD,11098,36.9358798,30.7416591
BARAJ MESLEKI VE TEKNIK ANADOLU LISESI,11100,36.9342998,30.7480229
4403.SK,11101,36.9303065,30.7483957
PTT CD-2,11102,36.8539459,30.8014877
LARA T.YOLU-11,11104,36.8605377,30.8370952
GOZDE CD-1,11106,36.8989392,30.8377688
PAPATYA SK,11107,36.8993637,30.8347115
EMINELLER CD,11108,36.9027153,30.8313131
KARA ASLAN CD,11109,36.9043199,30.8208341
TESISLER CD,11111,36.8593902,30.8219385
TESISLER CD-2,11112,36.8555314,30.8110953
PTT CD-5,11113,36.8540894,30.8012851
BARAJ MH,11114,36.934563,30.7486861
SAGLIK OCAGI,11115,36.9363731,30.7478563
3502.SK-2,11116,36.9370675,30.745069
KIRCICEGI CD-9,11117,36.9354967,30.7414256
3550 SK-2,11118,36.9318078,30.73843
HASTANE CD-4,11119,36.9305199,30.7307948
HASTANE CD-5,11121,36.9317738,30.7206264
CAMLIK MEVKI-5,11122,36.857672,30.811051
ERMENEK KAVSAGI,11123,36.861681,30.817588
KARA ASLAN CD.,11124,36.9042044,30.8208425
GOZDE CD-2,11125,36.8921144,30.8404397
10 SOKAK,11126,36.8837039,30.838288
ERMENEK KAVSAGI,11130,36.861824,30.817865
CAMLIK MEVKI-4,11131,36.8575842,30.810759
5861 SOKAK,11134,36.9402565,30.747659
TOPTANCI HAL,11137,36.9219439,30.7385104
Y.HAL YOLU-1,11139,36.913614,30.7396349
ASIK VEYSEL CD-6,11140,36.9091494,30.7376799
ASIK VEYSEL CD-8,11142,36.9063699,30.7347437
TERMESOS BLV-1,11143,36.9043235,30.7340611
TERMESOS BLV-2,11144,36.9015902,30.735001
TERMESOS BLV-3,11145,36.8993275,30.7355587
TERMESOS BLV-4,11146,36.8964289,30.7362125
TERMESOS BLV-6,11147,36.8906946,30.7377659
ASMALI SK-1,11149,36.8690623,30.8087625
ASMALI SK-2,11150,36.8665711,30.8035841
TERMESOS BLV-7,11152,36.8894324,30.7385316
TERMESOS BLV-8,11153,36.8910311,30.7378978
TERMESOS BLV-10,11154,36.8964779,30.7364545
TOPTANCI HAL,11156,36.9220465,30.7388281
KIRCICEGI CD-2,11157,36.9288172,30.742451
3550 SK-2,11158,36.9325942,30.7432418
2974 SOKAK,11162,36.9289508,30.6953157
2974 SK,11164,36.92878,30.695295
MUAMMER AKSOY CD-1,11166,36.9492244,30.7133602
MUAMMER AKSOY CD-2,11167,36.949294,30.716057
MUAMMER AKSOY CD-3,11168,36.9496321,30.721833
MUAMMER AKSOY CD-4,11169,36.949737,30.725334
2371.SK-1,11170,36.9192713,30.7340325
NECIP FAZIL KISAKUREK CADDESI,11171,36.9180027,30.7245641
NECIP FAZIL KISAKUREK CD,11173,36.917773,30.724554
NECIP FAZIL KISAKUREK CD,11174,36.9180976,30.7295022
2371.SK-2,11175,36.9189988,30.7338134
MUAMMER AKSOY CD-12,11177,36.9499522,30.7224179
MUAMMER AKSOY CD-6,11178,36.9496938,30.7166354
MUAMMER AKSOY CD,11181,36.9503129,30.73931
TURGUT OZAL CD,11184,36.947499,30.747223
TURGUT OZAL CD-2,11185,36.945636,30.748336
ARABA PAZARI,11186,36.9415108,30.7505152
SAKARYA  BLV-7,11187,36.9188057,30.6912373
SAKARYA  BLV-8,11188,36.9192107,30.6852661
SAKARYA BLV-12,11190,36.918775,30.686226
SAKARYA BLV-13,11191,36.918409,30.691605
TURGUT OZAL CD-4,11192,36.9458113,30.7485296
TURGUT OZAL CD-5,11193,36.9485861,30.7469401
MUAMMER AKSOY CD-8,11194,36.950866,30.7429405
MUAMMER AKSOY CD-9,11195,36.9507179,30.7394236
2401.SK,11198,36.911927,30.741478
ZUBEYDE HNM-1,11200,36.914773,30.746961
ZUBEYDE HNM-2,11201,36.916012,30.7498642
SUPHI TUREL CD-3,11202,36.9184466,30.7496312
SUPHI TUREL CD-4,11203,36.920875,30.7475079
KIRCICEGI CD-1,11204,36.9231465,30.7458604
KIRCICEGI CD-12,11205,36.9253567,30.7440298
HASTANE CD-7,11206,36.9286614,30.7356537
KOROGLU BLV-5,11208,36.9044069,30.7225378
KOROGLU BLV-6,11209,36.9045356,30.718719
KOROGLU BLV-1,11210,36.9042742,30.7191574
KOROGLU BLV-2,11211,36.9042088,30.7221596
KOROGLU BLV-3,11212,36.903716,30.7255
ASIK VEYSEL CD-1,11213,36.9040392,30.7302307
HASTANE CD-8,11215,36.9289499,30.7358352
KIRCICEGI CD-5,11216,36.939896,30.7413479
KIRCICEGI CD-6,11217,36.9492353,30.7387289
KIRCICEGI CD-7,11218,36.9495259,30.7381982
KIRCICEGI CD-8,11219,36.9396471,30.7409994
LARA TURIZM YOLU,11221,36.858857,30.894212
LARA T.YOLU-2,11222,36.858954,30.889168
LARA T.YOLU-3,11224,36.8564071,30.8757807
LARA T.YOLU-4,11225,36.8579485,30.8678432
LARA T.YOLU-5,11226,36.858712,30.864216
LARA T.YOLU-6,11227,36.859047,30.859756
LARA T.YOLU-7,11228,36.859519,30.856134
LARA T.YOLU-8,11230,36.8615887,30.8414747
LARA T.YOLU-9,11231,36.8607261,30.8372355
LARA T.YOLU-10 ,11232,36.8601711,30.8313482
CEBESOY CD-3,11233,36.8821286,30.7136864
CEBESOY CD-4,11234,36.8793184,30.7139263
CEBESOY CD-5,11235,36.8771141,30.7146557
CEBESOY CD-6,11236,36.875301,30.7165158
LARA T.YOLU-12,11239,36.8576345,30.8678069
LARA T.YOLU-13,11240,36.8567408,30.8715482
LARA T.YOLU-14,11241,36.8563284,30.8776953
LARA T.YOLU-15,11242,36.8566522,30.8800099
3847.SK-1,11245,36.9062458,30.6512739
3847.SK-2,11246,36.9063615,30.6561444
CUMHURIYET CD,11247,36.9911038,30.7076061
1928.SK,11248,36.9720289,30.7181574
TONGUC CD-3,11250,36.894924,30.6937475
TONGUC CD-4,11253,36.8987058,30.6996481
TONGUC CD-5,11254,36.9001696,30.7009222
FENER CD-4,11255,36.8503729,30.7615374
DUDEN PARK,11257,36.8526793,30.7813603
LARA CD-2,11259,36.8536956,30.7899815
TONGUC CD-6,11265,36.9002946,30.7007151
TONGUC CD-7,11266,36.8989199,30.6995454
SGK IL MUDURLUGU,11270,36.8994982,30.6922494
LARA CD-7,11271,36.8511371,30.8347216
LARA CD-8,11272,36.8517884,30.8409953
MURATPASA LISESI,11273,36.895863,30.673757
ISMAIL CEM CD-2,11274,36.8801559,30.7335887
ISMAIL CEM CD-4,11275,36.8810899,30.7290175
ISMAIL CEM CD-5,11276,36.8800953,30.7248688
BARIS MANCO  BLV-2,11277,36.9321234,30.6908481
BARIS MANCO CD-1,11278,36.9435765,30.6785686
BARIS MANCO  CD-2,11279,36.93813,30.6774095
BARIS MANCO  CD-3,11280,36.934042,30.6815797
BARIS MANCO  CD-4,11281,36.9324615,30.6831944
BARIS MANCO BLV-4,11282,36.9335658,30.6861591
BARIS MANCO  BLV-5,11283,36.9310772,30.6887655
5435.SK,11285,36.9407584,30.6672713
AHMET VEFIK PASA CADDESI,11287,36.9243925,30.677027
SELALE CD,11288,36.9270361,30.6958044
5370.SK-1,11290,36.9475845,30.6645306
TONGUC CD-8,11293,36.8952386,30.694043
7280.SK,11294,36.9714719,30.7299165
ANTALYA BLV. YANYOL-1,11295,36.9245948,30.6680223
ANTALYA BLV. YANYOL-3,11298,36.9441061,30.6447954
KEPEZ CD-2,11300,36.9681062,30.6465989
DURACI CD-5,11302,36.9748476,30.6518226
DURACI CD-3,11304,36.9776036,30.6554482
KARSIYAKA CD-1,11305,36.9744446,30.6597287
HURRIYET CD-7,11306,36.8999349,30.62956
HURRIYET CD-8,11307,36.8997925,30.6252896
DURALILER CD-1,11309,36.901768,30.5908173
DURALILER CADDESI,11310,36.9082129,30.5760755
DURALILER CD-3,11311,36.9016586,30.5908758
DURALILER CD-4,11312,36.9015811,30.6150203
HURRIYET CD-9,11314,36.8997151,30.6280509
ATATURK BULVARI,11316,37.0050712,30.5977106
INONU CD,11318,37.0431418,30.6202752
ATATURK BLV-13,11319,37.018211,30.601028
ATATURK BULVARI,11320,37.0210888,30.6015025
ATATURK CD-11,11322,37.058015,30.595676
ATATURK CD-12,11323,37.0544731,30.5964907
ATATURK CD-13,11324,37.052321,30.596937
ATATURK CD-14,11325,37.050392,30.597351
ATATURK CD-15,11326,37.0476345,30.5979226
ATATURK CD-16,11327,37.038833,30.59932
INONU CD,11328,37.0377195,30.6005339
ATATURK CD-21,11332,37.029377,30.600238
DOSEMEALTI BELEDIYESI,11333,37.0266736,30.6005475
ATATURK BULVARI,11335,37.021069,30.601213
ATATURK BLV-17,11336,37.018611,30.6008131
ATATURK BLV-18,11337,37.014934,30.600153
ATATURK BLV-19,11338,37.009633,30.598724
ATATURK BLV-20,11339,37.005093,30.597361
ASIR AKSU DEVLET HASTANESI,11340,36.950087,30.628354
INONU CADDESI,11343,37.0412438,30.6122191
INONU CD-2,11344,37.039629,30.606968
ATATURK CADDESI,11345,37.024089,30.601243
DOSEMEALTI BELEDIYESI,11346,37.026703,30.6008033
ATATURK CADDESI,11347,37.0300367,30.6004425
ATATURK CD-4,11348,37.033224,30.600182
ATATURK CD-5,11349,37.0364263,30.5998798
INONU CD-3,11350,37.037659,30.600809
INONU CADDESI,11351,37.0396975,30.6075464
INONU CD-5,11352,37.041316,30.612816
INCIKPINAR  CD.-1,11354,36.922421,30.819189
SEHIT KOMANDO ER MUSTAFA GOKTURK CD.-1,11355,36.9248459,30.8247139
SEHIT KOMANDO ER MUSTAFA GOKTURK CD.-2,11356,36.933901,30.821146
INCIKPINAR  CD.-3,11360,36.921838,30.818071
BILEYDILER CD-2,11363,36.8497074,30.6061708
MERSIN YOLU-1,11366,36.9471995,30.856784
YIGITLER CD-1,11367,36.8945059,30.7351007
KANARYA SK,11369,36.9492407,30.7794648
9.SK,11370,36.9490099,30.7850326
Y.EMRE SK-2,11372,36.9334584,30.7821916
YUCE SK,11373,36.9293364,30.7816
KASLILAR SK-2,11374,36.927063,30.779153
M.TUREL CD,11380,36.8968793,30.8664264
M.EGEMENLIK-3,11381,36.9062006,30.8620748
KEMERAGZI CD-3,11382,36.8812504,30.8640075
YORUKOGLU CD,11383,36.8874785,30.81369
ANTALYA BULVARI,11385,36.9534908,30.6251311
AKDENIZ BULVARI ,11386,36.9577925,30.6230181
ATATURK CADDESI,11388,36.9710617,30.6134469
ATATURK BLV-2,11389,36.9759078,30.6097253
ATATURK BLV-3,11390,36.97803,30.6082744
ATATURK CD-4,11391,36.9798636,30.6070132
ATATURK BLV-5,11392,36.9826445,30.6051699
ATATURK BLV-6,11393,36.9869639,30.6023185
ATATURK CADDESI,11394,36.9939389,30.5981994
ATATURK BLV-8,11395,36.9957352,30.5975779
ATATURK BLV-9,11396,37.0007814,30.5972899
ATATURK CD-6,11397,37.0410046,30.599301
ATATURK CD-7,11398,37.0453283,30.5986024
ATATURK CADDESI,11399,37.0483523,30.5981144
ATATURK CD-10 ,11401,37.0544921,30.5967152
ORGANIZE SANAYI,11403,37.0725069,30.6138767
FATIH SULTAN MEHMET CADDESI,11405,37.0484541,30.6170944
FATIH SULTAN MEHMET CD.-2,11406,37.0489383,30.6145003
178.SK,11407,37.0438811,30.6119114
ATATURK CADDESI,11408,36.9987208,30.5970598
ATATURK BLV-22,11409,36.9942605,30.5977276
ATATURK BLV-23,11410,36.9918319,30.5989215
ATATURK BLV-24,11411,36.9899324,30.6000566
ATATURK BLV-25,11412,36.9885001,30.6009889
ATATURK BLV-26,11413,36.9842574,30.6037127
ATATURK BLV-27,11414,36.9819993,30.6052359
ATATURK BLV-28,11415,36.9799757,30.606592
ATATURK BLV-29,11416,36.9757588,30.6094778
ATATURK BLV-30,11417,36.9706214,30.6134886
AKDENIZ BULVARI,11418,36.9564162,30.6231868
FATIH TRAMVAY DURAGI,11419,36.9436901,30.6437368
YUSUF ZIYA ONER FEN LISESI,11420,36.9904643,30.6128989
CIPLAKLI MH,11421,37.0477025,30.6162709
KOMURCULER YOLU-1,11422,37.1005606,30.6060687
KOMURCULER YOLU-2,11423,37.0913047,30.6026932
KOMURCULER YOLU-3,11424,37.0903155,30.6020033
KOMURCULER YOLU-4,11425,37.0860076,30.5987623
KOMURCULER YOLU-5,11426,37.0850647,30.5956505
6170.SK,11428,36.9424038,30.7032646
CEYHAN  CD-1,11430,36.9271796,30.7015383
CEYHAN  CD-2,11431,36.9246738,30.7008915
SOKULLU CD-1,11435,36.9002755,30.6946677
SOKULLU CD-2,11436,36.9001512,30.6949954
OKUL SOKAK,11448,36.9589248,30.7771332
5150 SOKAK,11449,36.93325,30.637925
AKDENIZ SANAYI SITESI,11450,36.9229217,30.6390463
4509.SK,11451,36.915172,30.634071
3732.SK,11452,36.904317,30.640523
FIKRI ERTEN  CD.-2,11456,36.909704,30.67853
3713.SK-2,11459,36.9044166,30.6452148
4345.SK,11460,36.9066552,30.6420767
3734 SOKAK,11461,36.9056921,30.6385069
5022.SK,11463,36.923718,30.632869
5150.SK-2,11465,36.9334017,30.6392824
5022.SK,11466,36.919977,30.633355
YUNUS EMRE CD-3,11468,36.8941627,30.7213152
75.YIL CD,11470,36.9319007,30.6487053
75.YIL CD,11471,36.9319059,30.650252
5036.SK,11474,36.925482,30.64161
4259.SK-1,11475,36.913604,30.644907
AZEM AKKAYA CD,11476,36.9114767,30.6454917
GULVEREN ANADOLU LISESI,11477,36.9038584,30.6471398
3709.SK-6,11478,36.905926,30.644492
4259.SK-2,11480,36.913294,30.645374
3230 SOKAK,11481,36.9348943,30.6434393
3230 SOKAK,11482,36.9350594,30.6433373
5122 SOKAK,11483,36.9323056,30.6284177
KARACAOGLAN-5,11486,36.903928,30.704648
KIZILARIK MH-5,11487,36.9064799,30.7207993
965 SK-3,11488,36.8960866,30.7257741
MILLI EGEMENLIK CD/2,11489,36.8903278,30.6998381
BARIS MANCO BLV-3,11490,36.9337458,30.6860217
BARIS MANCO  CD-5,11491,36.933054,30.6830996
KEPEZ CD-1,11500,36.9647855,30.6422252
KEPEZ CD-3,11501,36.9715171,30.6478365
KAYALIKTAS CD.,11502,36.9723138,30.6594986
AKDENIZ  UNV-17,11505,36.8910814,30.6443105
AKDENIZ  UNV-18,11506,36.8908841,30.6445524
CAMLIK CD-13,11507,36.8679873,30.6360886
223 SK,11508,36.8618927,30.6052347
INCIKPINAR CD.-2,11512,36.9121069,30.8403078
MENDERES CD,11513,36.917228,30.847592
AKDENIZ  UNV-13,11514,36.8946869,30.6543502
SERIK YANYOL,11521,36.916345,30.780291
SERIK YANYOL,11522,36.912972,30.7744546
ANTALYA HAVAALANI IC HATLAR,11525,36.911626,30.802517
6102.SK,11528,36.9306685,30.6854268
EMINELLER CD.,11529,36.901476,30.831252
YURTPINAR MH-1,11531,36.9741815,30.8482991
YURTPINAR MH-2,11532,36.9823028,30.8496902
YURTPINAR MH-4,11533,37.0025394,30.8594212
YURTPINAR MH-5,11534,37.0064736,30.8612188
ATATURK CD.,11535,37.0383096,30.8864758
ATATURK CD.,11536,37.0289971,30.8805771
ATATURK CD.,11537,37.0219593,30.8735552
ATATURK CD.,11538,37.0199441,30.8718748
ATATURK CD.,11539,37.016868,30.869421
ATATURK CD.,11540,37.0110324,30.8626967
ATATURK CD.,11541,36.994026,30.85396
FABRIKA SK.,11542,36.9597073,30.8382274
VEYSELLER CADDESI,11543,36.969192,30.83752
ATATURK BULVARI,11544,36.9394471,30.815609
ATATURK BLV.,11545,36.9550759,30.8110439
ATATURK BLV.,11546,36.9668473,30.784508
7911 SK,11547,36.9689778,30.7802875
ATATURK BLV.,11548,36.96515,30.78747
ATATURK BLV.,11549,36.962186,30.7925854
36.SK,11550,36.960506,30.7867088
34 SK.,11551,36.9599154,30.7822556
42 SK.,11552,36.9593399,30.7798468
33 SK,11553,36.9605636,30.7915748
33 SK,11554,36.9606811,30.7945615
ATATURK BLV.,11555,36.9614592,30.7983777
ATATURK BLV.,11556,36.959927,30.803929
ATATURK BLV.,11558,36.950615,30.81396
ATATURK BULVARI,11559,36.946968,30.814266
ATATURK BLV.,11560,36.945229,30.814295
ATATURK BLV.,11561,36.943588,30.814455
ATATURK BLV.,11562,36.941339,30.815098
ATATURK BULVARI,11563,36.939552,30.815294
KURSUNLU MEZARLIK,11564,37.0263813,30.8375542
KURSUNLU CD.,11565,37.0458313,30.8483499
GULOLUK MH-1,11566,37.0923954,30.8547483
TOPALLI MH.,11567,37.018758,30.807552
GAZILER CD.,11569,36.990205,30.776436
GAZILER TOPALLI CADDESI,11570,36.9996581,30.7779582
GAZILER CD.,11571,37.0063586,30.7837412
GAZILER CADDESI,11572,37.0051334,30.7789274
GAZILER CD.,11573,37.0032859,30.7759338
GAZILER CD.,11574,36.9971596,30.776164
GOKDERE  MH.,11575,37.0147665,30.9009342
DUMANLAR MH-1,11576,36.9976593,30.9045094
SOLAK CD.,11577,36.9650605,30.9013769
SOLAK CD.,11578,36.9618986,30.9008844
ALAYLI MH-2,11579,37.0560138,30.8911402
MILLI EGEMENLIK CD.-5,11580,36.9192608,30.8658135
MILLI EGEMENLIK CD.-6,11581,36.9116218,30.8660875
SAHIL CD.-2,11583,36.8773712,30.9115896
SAHIL CD.-3,11584,36.8756292,30.9149792
TESISLER CADDESI,11585,36.8553393,30.8111805
LARA TURIZM YOLU,11586,36.8592295,30.8220183
TESISLER CD.-8,11587,36.8598914,30.8304972
TESISLER CD. -9,11588,36.8616063,30.8468994
TESISLER CD.-10,11589,36.8618317,30.8466776
TESISLER CD.-11,11590,36.8584034,30.8646615
TESISLER CD.-12,11591,36.8583783,30.8865723
TESISLER CD.-14,11593,36.8588195,30.8934273
TESISLER CD.-15,11594,36.8587506,30.898757
TESISLER CD.-16,11595,36.8587003,30.8984144
TESISLER CD.-17,11596,36.8586597,30.9080374
TESISLER CD.-18,11597,36.8582389,30.9137718
TESISLER CD.-19,11598,36.8611856,30.9207566
LARA TURIZM YOLU,11599,36.8611775,30.9204415
TESISLER CD.-21,11600,36.8583213,30.9145609
TESISLER CD.-22,11601,36.8587755,30.9078067
ATATURK BLV-34,11602,36.9901351,30.600281
SHT AHMET KUCUKADALI CADDESI,11603,37.0229656,30.6006553
ATATURK CADDESI,11604,37.0328118,30.5999362
KAZIM KARABEKIR CD.-1,11605,37.0584374,30.5916924
KAZIM KARABEKIR CADDESI,11606,37.0585485,30.5862018
KARAIN CADDESI,11607,37.0640725,30.5886848
KARAIN CD-2,11608,37.0632749,30.5858833
YAGCA KOYU YOLU,11609,37.0574343,30.5613075
SHT.HASAN DAGHAN CD-1,11610,37.0495901,30.5611487
SHT HASAN DAGHAN CADDESI,11611,37.0471422,30.5587871
SHT.HASAN DAGHAN CD-3,11612,37.0430206,30.556851
SHT.HASAN DAGHAN CD-4,11613,37.0402021,30.5563119
SHT AHMET KUCUKADALI CADDESI,11614,37.0362851,30.5550181
SHT.AHMET AYVERDI CD.-1,11615,37.0314972,30.5512423
SHT AHMET AYVERDI CADDESI,11616,37.0253932,30.5305419
SHT.AHMET KUCUKADALI CD.-3,11617,37.034505,30.559213
HACI KOZAK CD.,11618,37.0045433,30.5922408
800.SK,11619,37.0040401,30.5897975
MEVLANA CD.-1,11620,37.0020128,30.5897089
KARAMAN CADDESI,11621,36.99745,30.5848652
YUKARI KARAMAN SOKAK,11622,36.9890509,30.5797139
UZUNKUYU CADDESI,11623,36.989296,30.5740046
UZUNKUYU CADDESI,11624,36.9888076,30.5698866
ANTALYA DENIZLI YOLU ,11625,36.9821981,30.5699575
ANTALYA DENIZLI YOLU-2,11626,36.980886,30.5724876
ANTALYA DENIZLI YOLU-3,11627,36.9796361,30.5744034
ANTALYA DENIZLI YOLU-4,11628,36.9670421,30.5886655
ANTALYA DENIZLI YOLU-5,11629,36.9639438,30.5971884
ANTALYA DENIZLI YOLU-6,11630,36.9615665,30.601055
ANTALYA DENIZLI YOLU-7,11631,36.9603988,30.6026398
ANTALYA DENIZLI YOLU-8,11632,36.9585796,30.6058006
ANTALYA DENIZLI YOLU-9,11633,36.957476,30.6079912
ANTALYA DENIZLI YOLU-10,11634,36.953919,30.6179545
ANTALYA DENIZLI YOLU-11,11635,36.9531261,30.6208106
ATATURK CD-1,11636,36.893284,30.6010766
ATATURK CD-2,11637,36.894554,30.596186
BAHTILI KOYU YOLU-1,11638,36.8908106,30.5756053
BAHTILI KOYU YOLU-2,11639,36.887961,30.574413
BAHTILI KOYU YOLU-3,11640,36.8862413,30.5737849
ATATURK CD-3,11641,36.880749,30.5707445
ATATURK CADDESI,11642,36.8783047,30.5692157
YAVUZ SELIM CD-1,11643,36.8734954,30.5629991
GIRNE CD-1,11644,36.8689189,30.5561007
GIRNE CD-12,11645,36.8641961,30.5477448
GIRNE CD-10,11646,36.8609127,30.5411164
HACISEKILILER-24,11647,36.8562387,30.5342058
HACISEKILILER-22,11648,36.8517405,30.5295906
HACISEKILILER-20,11649,36.848732,30.526743
HISARCANDIR-1,11650,36.77262,30.469307
HISARCANDIR-2,11651,36.740204,30.448586
UCOLUK MH-6,11652,36.7118192,30.4377402
HISARCANDIR-4,11653,36.680764,30.4313284
YARBASCANDIR-1,11654,36.690517,30.373736
YARBASCANDIR-2,11655,36.7580467,30.4212957
YARBVASCANDIR-3,11656,36.75809,30.415291
CITDIBI,11657,36.7910989,30.4356532
AKDAMLAR-11,11658,36.864049,30.529849
AKDAMLAR-8,11659,36.869283,30.523318
AKDAMLAR-7,11660,36.87172,30.518137
GIRNE CD-13,11661,36.8663272,30.5515531
DEPO SK-3,11662,36.8719,30.5549717
CAKIRLAR MAHALLESI,11663,36.8715121,30.5644728
CUMHURIYET CD,11664,36.871028,30.568328
CAKIRLAR MAHALLESI,11665,36.874839,30.568349
KARATEPE YOLU-1,11666,36.887397,30.559557
KARATEPE MAHALLESI,11667,36.8863542,30.5500385
GOKCAM MH ,11668,36.8877153,30.5480123
GOKCAM MH.-1,11669,36.890495,30.547771
GOKCAM MAHALLESI,11670,36.895304,30.545503
DOYRAN MH-1,11671,36.902087,30.53789
DOYRAN MH-2,11672,36.903678,30.540558
CUMHURIYET CD-1,11673,36.902283,30.543715
CUMHURIYET CD,11675,36.9041612,30.5437813
ASAGIKARAMAN MH,11677,36.9101533,30.5743388
36.CD-6,11679,36.849969,30.597675
35.CD-1,11681,36.888549,30.627934
BUYUKSEHIR ITFAIYE,11682,36.900761,30.641648
NAMIK KEMAL BLV-9,11683,36.9186414,30.6731526
NAMIK KEMAL BULVARI,11684,36.9214757,30.6704521
SAKARYA BULVARI,11685,36.921844,30.67417
CAGLAYAN ANADOLU LISESI,11686,36.9149209,30.6809268
BARIS TAKSI,11687,36.9164915,30.68435
ANTKOOP,11688,36.917388,30.6863545
ANTKOOP,11689,36.9175571,30.6863805
ALIYA IZZET BEGOVIC CD-10,11690,36.9208773,30.6959612
YILDIRIM BEYAZIT CD-9,11691,36.923308,30.692167
SELALE CD-7,11692,36.934882,30.703424
SELALE CD-8,11693,36.9370659,30.7035162
SELALE CD-13,11694,36.9381923,30.7031367
SAKARYA BULVARI,11696,36.9184624,30.7095315
YENI HAL YOLU-4,11697,36.9136949,30.7400465
4437. SK-1,11698,36.9268805,30.7478172
9 SOKAK,11700,36.9325954,30.7702404
10. SK-1,11701,36.937356,30.7735612
YUNUS EMRE SK.-1,11702,36.9417782,30.7770368
YUNUS EMRE SK.-2,11703,36.9497717,30.7737166
ANDIZLI SOKAK,11706,36.955095,30.7663081
ATATURK CD.-4,11707,36.9668736,30.756229
ATATURK CD.-1,11708,36.9720344,30.7411082
ATATURK CADDESI,11709,36.9712979,30.7346441
21.CD,11710,36.9692177,30.728747
ATATURK CD.-3,11712,36.9641843,30.7592442
HURRIYET CD.,11713,36.960294,30.7427618
HACI DURMUS CADDESI,11714,36.9646943,30.7417323
SEVGI KOYU CD.,11715,36.9452934,30.8435323
GOKDERE MH-1,11717,37.027132,30.9039038
GOKDERE MH-2,11718,37.0296855,30.9026133
GOKDERE MH-3,11719,37.0349895,30.9019552
ALAYLI MH-1,11720,37.0509238,30.8925928
TOPALLI,11722,37.0594142,30.8115635
KUMKOY CAMI,11724,36.8816193,30.9536338
KUMKOY,11725,36.881882,30.9565747
TOROSLAR CD-7,11727,36.8963889,30.6757366
TOROSLAR CD-2,11728,36.8964548,30.6757034
KARACAOGLAN CD-6,11729,36.904663,30.710458
BARIS MANCO CD-6,11730,36.9411354,30.6760809
BARIS MANCO CD-7,11731,36.9411332,30.6756336
ATATURK CD.-25,11734,36.9922108,30.5990808
INONU CD,11735,37.0431567,30.6196463
CEZAEVI,11736,37.0728126,30.5913942
AKDENIZ BLV-20,11738,37.0307811,30.6272049
PINARLI KAVSAGI,11740,36.9362653,30.8164333
KORKUTELI YOLU-1,11741,36.9768761,30.5771799
KORKUTELI YOLU-2,11742,36.9770333,30.57738
INONU CD,11743,37.038357,30.602714
4999.SK,11744,36.982644,30.620125
2303.SK,11745,36.914645,30.735262
NAMIK KEMAL BULVARI,11746,36.920805,30.670222
YILDIZ CD-5,11747,36.892871,30.684273
HAVAALANI CD,11751,36.868141,30.784128
YARBASCANDIR MH,11752,36.72535,30.37085
OMER BUYRUKCU CADDESI,11754,36.918614,30.735408
CUMHURIYET CADDESI,11757,37.0267752,30.6215504
AKSU EMNIYET MUDURLUGU,11759,36.94712,30.839824
ATATURK CD,11800,37.0413949,30.5989394
NAMIK KEMAL CD,11801,36.9775467,30.6205848
ADNAN MENDERES CD,11802,36.9930071,30.6051058
ATATURK CD,11803,37.036902,30.599531
ATATURK BLV,11804,37.0086229,30.5987087
ATATURK BLV,11805,37.0126816,30.600023
ATATURK BLV,11806,36.9566714,30.8071995
ATATURK BLV,11807,36.9490729,30.8140499
AKSU,11808,36.947536,30.8386323
AKSU ESKI EMNIYET,11809,36.9468565,30.8470383
BARINAKLAR BLV-20,11810,36.851809,30.763016
YESILKARAMAN,11811,37.115639,30.802562
GULOLUK,11812,37.092166,30.86527
ALAYLI MH-3,11813,37.061186,30.888542
AKSU ASMEK,11815,36.9495659,30.8458609
 MILLI EGEMENLIK CD,11816,36.9217121,30.8647597
KARDES KENTLER CD,11817,36.9083475,30.8159756
KARDESKENTLER CD,11818,36.9021342,30.8178103
1595 SK-2,11819,36.8856641,30.7353364
DURALILER 4583 SK,11821,36.901933,30.6211458
MILLI EGEMENLIK CD,11822,36.903318,30.86244
ANTALYA CD,11823,36.948486,30.76018
PTT CD,11824,36.9372164,30.7577185
ANTALYA CD,11825,36.922745,30.7664886
KASLILAR SOKAK,11826,36.925831,30.776168
BAHTILI,11828,36.8872474,30.571715
DURALILER CD,11829,36.900995,30.616846
CUMHURIYET CD,11830,36.8683752,30.572427
GAZILER MAHALLESI,11831,37.0097924,30.7876918
RECEP GURBUZ CD,11832,36.991846,30.7474372
RECEP GURBUZ CD,11833,36.9992248,30.7575222
BARIS MANCO BULVARI,11835,36.926176,30.6895973
GALIP KUSCUOGLU CD,11836,36.9264977,30.685275
GAZI BL Y.YOLU KARAYUSUF CD,11837,36.9126733,30.70582
GOKSU AILE SAGLIGI MERKEZI,11838,36.9114247,30.7471954
CIPLAKLI CD,11839,37.0466421,30.649845
ODABASI MAHALLESI,11840,37.026506,30.678381
PALMIYE CD,11841,37.0258724,30.672523
ILICA MH-3,11843,37.1554148,30.6398994
CUMHURIYET CD,11844,36.898164,30.542676
GOZDE CD,11846,36.8955709,30.8375366
ANTALYA DENIZLI YOLU,11847,36.9534585,30.6206438
ANTALYA CADDESI,11848,36.9160102,30.767948
SAHIN BEY CD-1,11849,36.989243,30.7255048
SAHIN BEY CADDESI,11850,36.9897539,30.7228788
YILDIRIM BEYAZIT CD,11851,36.92152,30.69275
PTT CADDESI,11852,36.855009,30.806266
PTT CADDESI,11853,36.85491,30.806508
PINARBASI CD-1,11854,36.8821973,30.6492791
SELALE CD-3,11855,36.926799,30.695814
ISMAIL BAHASURELSAN CD,11856,36.8896136,30.6670836
SAKARYA BULVARI,11857,36.9188237,30.7032827
SAKARYA BULVARI,11858,36.9185449,30.703571
FATIH CD-6,11859,36.903805,30.700896
SARISU DEPOLAMA-2,11860,36.8308379,30.5963215
AKDENIZ BULVARI,11861,37.0153738,30.6308308
LARA TURIZM YOLU,11863,36.8587034,30.86193
ALTINTAS MH. PAPATYA SK,11864,36.8992493,30.8341476
H.KARAKAS MH. 3643 sk,11865,36.9370167,30.7317999
INCIKPINAR CD,11866,36.923018,30.8214876
GAZILER CADDESI,11867,36.9869913,30.7667115
15.CADDE,11868,36.8841131,30.6424555
SOSYAL BILIMLER MESLEK YUKSEK OKULU,11869,36.9050125,30.6786921
GAZI BULVARI,11871,36.9033764,30.6730626
KARAYOLLARI BOLGE MUDURLUGU,11872,36.9038242,30.672963
NARENCIYE CD-1,11873,36.8811481,30.7221386
BALIKCIOGLU CD-2,11874,36.8831412,30.7165301
BALIKCIOGLU CD-1,11875,36.8833364,30.7153793
ISMETPASA CADDESI,11876,36.8912954,30.7052112
ASPENDOS BLV-11,11877,36.894541,30.7572004
ISIKLAR CD-2,11878,36.877769,30.7105059
AKDENIZ BLV-6,11879,36.8472446,30.6105158
1596 SK-1,11880,36.8811224,30.734171
BOGACAY CD-8,11881,36.8600984,30.6041482
KARAVELILER MH-3,11882,37.2199547,30.646309
DUTLUBAHCE MH-1,11883,36.90714,30.701555
YUNUS EMRE SK,11884,36.9302203,30.7841305
MANDIRLAR MH,11886,36.9028098,30.8579388
MANDIRLAR MH-1,11887,36.9111603,30.847906
KIZILIRMAK CD-1,11890,36.9118161,30.71521
153 SK-2,11891,36.8427328,30.5927783
138 SK-2,11892,36.8403179,30.5893371
10.SOKAK,11893,36.8836261,30.8385947
FATIH CD-2,11894,36.9063809,30.6997019
ALIYA IZZET BEGOVIC CD-5,11897,36.9220402,30.7106051
1315 SK-2,11900,36.896714,30.631409
1110 SK,11901,36.8964393,30.7259849
UNCALI CADDESI,11902,36.8897337,30.6258258
TERMESSOS CADDESI,11903,37.0251691,30.5385748
MEVLANA CADDESI,11904,36.9471458,30.8500317
100.SOKAK,11905,36.9473152,30.8495113
TEVFIK ISIK CD-1,11906,36.8736859,30.7159722
PINARBASI CD-3,11907,36.8858358,30.6474552
4582 SOKAK,11908,36.9034897,30.6234112
ASAGIKARAMAN MAHALLESI,11909,36.9146742,30.5675629
2414 SOKAK,11910,36.9111828,30.744004
D-400 UZERI,11911,36.9428414,30.9006664
GEBIZ KAVSAGI D-400,11912,36.9406269,30.9238836
GEBIZ KAVSAGI D-400,11913,36.9402067,30.9238997
KOZAGAC KOYU GIRISI D-400,11914,36.9388883,30.9374878
SERIK YUKARIKOCAYATAK KOYU GIRISI,11915,36.9338607,30.964672
TANSU CILLER CADDESI,11916,36.9768139,30.7301101
AHMET CESME CD,11917,36.9811143,30.7072523
ASPENDOS BLV-5,11918,36.8904202,30.7460907
5 TEMMUZ KURTULUS CD,11919,36.9370295,30.6478118
ASPENDOS BLV-3,11922,36.8891052,30.7406036
ANTALYA BULVARI,11924,36.9475426,30.6419258
GAZI BLV - 1,11925,36.9077878,30.6882516
277 SK-2,11926,36.8564447,30.6010355
36.CD-3,11927,36.8522735,30.6022009
GAZI BLV,11928,36.9124696,30.7097387
10 SOKAK,11929,36.8702699,30.8223888
MEYDAN DEPOLAMA-1,11930,36.8861919,30.7317516
SAHIN BEY CD.,11932,36.9896608,30.7319474
SAHIN BEY CD,11933,36.9894487,30.7314244
SAHIN BEY CD,11934,36.9889795,30.7262772
SAHIN BEY CADDESI,11935,36.9894787,30.7218275
SULEYMAN DEMIREL BLV-28,11936,36.9884106,30.716594
SULEYMAN DEMIREL BLV-25,11937,36.9791173,30.7148402
S.DEMIREL BLV-4,11938,36.9794043,30.7144862
SULEYMAN DEMIREL BLV-22,11939,36.969344,30.714089
SULEYMAN DEMIREL BLV-13,11941,36.947969,30.707944
YESILIRMAK CD-23,11942,36.9427555,30.7098611
YESILIRMAK CD-17,11943,36.9301538,30.7128769
PERGE BLV-4,11948,36.8774622,30.7354692
PERGE BLV-7,11949,36.8770481,30.735437
PERGE BLV-10,11950,36.8860495,30.7395017
SHT.BIN.ERDOGAN OZDEMIR CADDESI,11951,36.9104858,30.6395105
SUNA INAN KIRAC PARKI,11952,36.9102606,30.639548
SHT.BIN.ERDOGAN OZDEMIR CADDESI,11953,36.910053,30.643051
SHT.BIN.ERDOGAN OZDEMIR CD,11954,36.9099432,30.6459102
PINAR CD-6,11955,36.900577,30.673655
HAMIDIYE CD,11956,36.8948628,30.6837508
MEDSTAR HASTANESI,11957,36.8949593,30.6835308
16.CADDE,11958,36.887654,30.642231
16.CADDE,11959,36.8873417,30.6406986
16.CADDE,11960,36.8877987,30.6449017
16.CADDE,11961,36.888121,30.645443
GAZI BULVARI ,11962,36.9090274,30.6908411
HACI DURMUS CADDESI,11963,36.9646549,30.7420406
HACI DURMUS CD,11964,36.9622031,30.7445994
HACI DURMUS CD,11965,36.9624646,30.744704
HURRIYET CD,11966,36.9601799,30.7425931
HURRIYET CD,11967,36.9561913,30.743312
SPOR 89 SITESI,11968,36.9585082,30.7525495
KAKTUS SOKAK,11969,36.9568986,30.748722
KAKTUS SOKAK,11970,36.9571193,30.7487783
ANTALYA CADDESI,11971,36.9534842,30.7582116
ANTALYA CADDESI,11972,36.9534241,30.7583135
KAKTUS SOKAK,11973,36.946663,30.755865
KAKTUS SOKAK,11974,36.9460183,30.7572782
PTT CADDESI,11975,36.9424405,30.7575116
PTT CADDESI,11976,36.9425906,30.7576215
ATATURK CADDESI,11977,36.964402,30.759275
4955 SK UZERI,11978,36.9668987,30.7572273
4955 SK UZERI,11979,36.9669694,30.7569993
4435 SK ,11980,36.9701796,30.760462
4463 SK UZERI,11981,36.9700102,30.760191
4466 SK UZERI,11982,36.9723139,30.7607624
4466 SK ,11983,36.972156,30.760592
FEVZI CAKMAK CD UZERI,11984,36.9748489,30.7518092
FEVZI CAKMAK CD UZERI,11985,36.9747525,30.751777
FEVZI CAKMAK CD UZERI,11986,36.9752732,30.7560551
FEVZI CAKMAK CD UZERI,11987,36.9752196,30.7563099
ANDIZLI SK UZERI,11988,36.957338,30.7665238
ANDIZLI SK UZERI,11989,36.9609301,30.7633159
ATATURK CADDESI,11990,36.9609686,30.7635787
ANTALYA CD UZERI,11991,36.9201122,30.7672855
ANTALYA CD ,11992,36.9159093,30.7677119